{"location": "Madison", "country": "US", "latitude": 43.0748, "longitude": -89.3838}
{"location": "New York", "country": "US", "latitude": 40.7143, "longitude": -74.006}
{"location": "Paris", "country": "FR", "latitude": 48.8534, "longitude": 2.3488}
{"location": "Cherepivske", "country": "UA", "latitude": 47.8485, "longitude": 35.4072}
{"location": "New York", "country": "US", "latitude": 40.7143, "longitude": -74.006}
{"location": "Paris", "country": "FR", "latitude": 48.8534, "longitude": 2.3488}
{"location": "London", "country": "GB", "latitude": 51.5085, "longitude": -0.1257}
{"location": "Tokyo", "country": "JP", "latitude": 35.6895, "longitude": 139.6917}
{"location": "Said Abid", "country": "DZ", "latitude": 36.3516, "longitude": 3.8344}
{"location": "Madison", "country": "US", "latitude": 43.0748, "longitude": -89.3838}
{"location": "New York", "country": "US", "latitude": 40.7143, "longitude": -74.006}
{"location": "Paris", "country": "FR", "latitude": 48.8534, "longitude": 2.3488}
